[
  {"name": "New York", "country": "United States", "region": "New York", "lat": 40.7128, "lng": -74.0060},
  {"name": "Los Angeles", "country": "United States", "region": "California", "lat": 34.0522, "lng": -118.2437},
  {"name": "Chicago", "country": "United States", "region": "Illinois", "lat": 41.8781, "lng": -87.6298},
  {"name": "Houston", "country": "United States", "region": "Texas", "lat": 29.7604, "lng": -95.3698},
  {"name": "Phoenix", "country": "United States", "region": "Arizona", "lat": 33.4484, "lng": -112.0740},
  {"name": "Philadelphia", "country": "United States", "region": "Pennsylvania", "lat": 39.9526, "lng": -75.1652},
  {"name": "San Antonio", "country": "United States", "region": "Texas", "lat": 29.4241, "lng": -98.4936},
  {"name": "San Diego", "country": "United States", "region": "California", "lat": 32.7157, "lng": -117.1611},
  {"name": "Dallas", "country": "United States", "region": "Texas", "lat": 32.7767, "lng": -96.7970},
  {"name": "San Jose", "country": "United States", "region": "California", "lat": 37.3382, "lng": -121.8863},
  {"name": "Austin", "country": "United States", "region": "Texas", "lat": 30.2672, "lng": -97.7431},
  {"name": "Jacksonville", "country": "United States", "region": "Florida", "lat": 30.3322, "lng": -81.6557},
  {"name": "Fort Worth", "country": "United States", "region": "Texas", "lat": 32.7555, "lng": -97.3308},
  {"name": "Columbus", "country": "United States", "region": "Ohio", "lat": 39.9612, "lng": -82.9988},
  {"name": "San Francisco", "country": "United States", "region": "California", "lat": 37.7749, "lng": -122.4194},
  {"name": "Charlotte", "country": "United States", "region": "North Carolina", "lat": 35.2271, "lng": -80.8431},
  {"name": "Indianapolis", "country": "United States", "region": "Indiana", "lat": 39.7684, "lng": -86.1581},
  {"name": "Seattle", "country": "United States", "region": "Washington", "lat": 47.6062, "lng": -122.3321},
  {"name": "Denver", "country": "United States", "region": "Colorado", "lat": 39.7392, "lng": -104.9903},
  {"name": "Boston", "country": "United States", "region": "Massachusetts", "lat": 42.3601, "lng": -71.0589},
  {"name": "El Paso", "country": "United States", "region": "Texas", "lat": 31.7619, "lng": -106.4850},
  {"name": "Detroit", "country": "United States", "region": "Michigan", "lat": 42.3314, "lng": -83.0458},
  {"name": "Nashville", "country": "United States", "region": "Tennessee", "lat": 36.1627, "lng": -86.7816},
  {"name": "Portland", "country": "United States", "region": "Oregon", "lat": 45.5152, "lng": -122.6784},
  {"name": "Memphis", "country": "United States", "region": "Tennessee", "lat": 35.1495, "lng": -90.0490},
  {"name": "Oklahoma City", "country": "United States", "region": "Oklahoma", "lat": 35.4676, "lng": -97.5164},
  {"name": "Las Vegas", "country": "United States", "region": "Nevada", "lat": 36.1699, "lng": -115.1398},
  {"name": "Louisville", "country": "United States", "region": "Kentucky", "lat": 38.2527, "lng": -85.7585},
  {"name": "Baltimore", "country": "United States", "region": "Maryland", "lat": 39.2904, "lng": -76.6122},
  {"name": "Milwaukee", "country": "United States", "region": "Wisconsin", "lat": 43.0389, "lng": -87.9065},
  {"name": "Albuquerque", "country": "United States", "region": "New Mexico", "lat": 35.0844, "lng": -106.6504},
  {"name": "Tucson", "country": "United States", "region": "Arizona", "lat": 32.2226, "lng": -110.9747},
  {"name": "Fresno", "country": "United States", "region": "California", "lat": 36.7378, "lng": -119.7871},
  {"name": "Sacramento", "country": "United States", "region": "California", "lat": 38.5816, "lng": -121.4944},
  {"name": "Mesa", "country": "United States", "region": "Arizona", "lat": 33.4152, "lng": -111.8315},
  {"name": "Kansas City", "country": "United States", "region": "Missouri", "lat": 39.0997, "lng": -94.5786},
  {"name": "Atlanta", "country": "United States", "region": "Georgia", "lat": 33.7490, "lng": -84.3880},
  {"name": "Long Beach", "country": "United States", "region": "California", "lat": 33.7701, "lng": -118.1937},
  {"name": "Colorado Springs", "country": "United States", "region": "Colorado", "lat": 38.8339, "lng": -104.8214},
  {"name": "Raleigh", "country": "United States", "region": "North Carolina", "lat": 35.7796, "lng": -78.6382},
  {"name": "Miami", "country": "United States", "region": "Florida", "lat": 25.7617, "lng": -80.1918},
  {"name": "Virginia Beach", "country": "United States", "region": "Virginia", "lat": 36.8529, "lng": -75.9780},
  {"name": "Omaha", "country": "United States", "region": "Nebraska", "lat": 41.2524, "lng": -95.9980},
  {"name": "Oakland", "country": "United States", "region": "California", "lat": 37.8044, "lng": -122.2711},
  {"name": "Minneapolis", "country": "United States", "region": "Minnesota", "lat": 44.9778, "lng": -93.2650},
  {"name": "Tulsa", "country": "United States", "region": "Oklahoma", "lat": 36.1540, "lng": -95.9928},
  {"name": "Arlington", "country": "United States", "region": "Texas", "lat": 32.7357, "lng": -97.1081},
  {"name": "New Orleans", "country": "United States", "region": "Louisiana", "lat": 29.9511, "lng": -90.0715},
  {"name": "Wichita", "country": "United States", "region": "Kansas", "lat": 37.6872, "lng": -97.3301},
  {"name": "Cleveland", "country": "United States", "region": "Ohio", "lat": 41.4993, "lng": -81.6944},
  {"name": "Tampa", "country": "United States", "region": "Florida", "lat": 27.9506, "lng": -82.4572},
  {"name": "Bakersfield", "country": "United States", "region": "California", "lat": 35.3733, "lng": -119.0187},
  {"name": "Aurora", "country": "United States", "region": "Colorado", "lat": 39.7294, "lng": -104.8319},
  {"name": "Anaheim", "country": "United States", "region": "California", "lat": 33.8366, "lng": -117.9143},
  {"name": "Honolulu", "country": "United States", "region": "Hawaii", "lat": 21.3099, "lng": -157.8581},
  {"name": "Santa Ana", "country": "United States", "region": "California", "lat": 33.7455, "lng": -117.8677},
  {"name": "Corpus Christi", "country": "United States", "region": "Texas", "lat": 27.8006, "lng": -97.3964},
  {"name": "Riverside", "country": "United States", "region": "California", "lat": 33.9533, "lng": -117.3962},
  {"name": "Lexington", "country": "United States", "region": "Kentucky", "lat": 38.0406, "lng": -84.5037},
  {"name": "Stockton", "country": "United States", "region": "California", "lat": 37.9577, "lng": -121.2908},
  {"name": "St. Paul", "country": "United States", "region": "Minnesota", "lat": 44.9537, "lng": -93.0900},
  {"name": "St. Louis", "country": "United States", "region": "Missouri", "lat": 38.6270, "lng": -90.1994},
  {"name": "Pittsburgh", "country": "United States", "region": "Pennsylvania", "lat": 40.4406, "lng": -79.9959},
  {"name": "Anchorage", "country": "United States", "region": "Alaska", "lat": 61.2181, "lng": -149.9003},
  {"name": "Cincinnati", "country": "United States", "region": "Ohio", "lat": 39.1031, "lng": -84.5120},
  {"name": "Henderson", "country": "United States", "region": "Nevada", "lat": 36.0395, "lng": -114.9817},
  {"name": "Greensboro", "country": "United States", "region": "North Carolina", "lat": 36.0726, "lng": -79.7920},
  {"name": "Plano", "country": "United States", "region": "Texas", "lat": 33.0198, "lng": -96.6989},
  {"name": "Newark", "country": "United States", "region": "New Jersey", "lat": 40.7357, "lng": -74.1724},
  {"name": "Lincoln", "country": "United States", "region": "Nebraska", "lat": 40.8136, "lng": -96.7026},
  {"name": "Toledo", "country": "United States", "region": "Ohio", "lat": 41.6528, "lng": -83.5379},
  {"name": "Orlando", "country": "United States", "region": "Florida", "lat": 28.5383, "lng": -81.3792},
  {"name": "Chula Vista", "country": "United States", "region": "California", "lat": 32.6401, "lng": -117.0842},
  {"name": "Jersey City", "country": "United States", "region": "New Jersey", "lat": 40.7178, "lng": -74.0431},
  {"name": "Chandler", "country": "United States", "region": "Arizona", "lat": 33.3062, "lng": -111.8413},
  {"name": "Laredo", "country": "United States", "region": "Texas", "lat": 27.5306, "lng": -99.4803},
  {"name": "Madison", "country": "United States", "region": "Wisconsin", "lat": 43.0731, "lng": -89.4012},
  {"name": "Lubbock", "country": "United States", "region": "Texas", "lat": 33.5779, "lng": -101.8552},
  {"name": "Winston-Salem", "country": "United States", "region": "North Carolina", "lat": 36.0999, "lng": -80.2442},
  {"name": "Garland", "country": "United States", "region": "Texas", "lat": 32.9126, "lng": -96.6389},
  {"name": "Glendale", "country": "United States", "region": "Arizona", "lat": 33.5387, "lng": -112.1860},
  {"name": "Hialeah", "country": "United States", "region": "Florida", "lat": 25.8576, "lng": -80.2781},
  {"name": "Reno", "country": "United States", "region": "Nevada", "lat": 39.5296, "lng": -119.8138},
  {"name": "Baton Rouge", "country": "United States", "region": "Louisiana", "lat": 30.4515, "lng": -91.1871},
  {"name": "Irvine", "country": "United States", "region": "California", "lat": 33.6846, "lng": -117.8265},
  {"name": "Chesapeake", "country": "United States", "region": "Virginia", "lat": 36.7682, "lng": -76.2875},
  {"name": "Irving", "country": "United States", "region": "Texas", "lat": 32.8140, "lng": -96.9489},
  {"name": "Scottsdale", "country": "United States", "region": "Arizona", "lat": 33.4942, "lng": -111.9261},
  {"name": "North Las Vegas", "country": "United States", "region": "Nevada", "lat": 36.1989, "lng": -115.1175},
  {"name": "Fremont", "country": "United States", "region": "California", "lat": 37.5485, "lng": -121.9886},
  {"name": "Gilbert", "country": "United States", "region": "Arizona", "lat": 33.3528, "lng": -111.7890},
  {"name": "San Bernardino", "country": "United States", "region": "California", "lat": 34.1083, "lng": -117.2898},
  {"name": "Boise", "country": "United States", "region": "Idaho", "lat": 43.6150, "lng": -116.2023},
  {"name": "Birmingham", "country": "United States", "region": "Alabama", "lat": 33.5207, "lng": -86.8025},
  {"name": "London", "country": "United Kingdom", "region": "England", "lat": 51.5074, "lng": -0.1278},
  {"name": "Manchester", "country": "United Kingdom", "region": "England", "lat": 53.4808, "lng": -2.2426},
  {"name": "Birmingham", "country": "United Kingdom", "region": "England", "lat": 52.4862, "lng": -1.8904},
  {"name": "Liverpool", "country": "United Kingdom", "region": "England", "lat": 53.4084, "lng": -2.9916},
  {"name": "Leeds", "country": "United Kingdom", "region": "England", "lat": 53.8008, "lng": -1.5491},
  {"name": "Glasgow", "country": "United Kingdom", "region": "Scotland", "lat": 55.8642, "lng": -4.2518},
  {"name": "Sheffield", "country": "United Kingdom", "region": "England", "lat": 53.3811, "lng": -1.4701},
  {"name": "Bradford", "country": "United Kingdom", "region": "England", "lat": 53.7960, "lng": -1.7594},
  {"name": "Edinburgh", "country": "United Kingdom", "region": "Scotland", "lat": 55.9533, "lng": -3.1883},
  {"name": "Leicester", "country": "United Kingdom", "region": "England", "lat": 52.6369, "lng": -1.1398},
  {"name": "Coventry", "country": "United Kingdom", "region": "England", "lat": 52.4068, "lng": -1.5197},
  {"name": "Hull", "country": "United Kingdom", "region": "England", "lat": 53.7457, "lng": -0.3367},
  {"name": "Cardiff", "country": "United Kingdom", "region": "Wales", "lat": 51.4816, "lng": -3.1791},
  {"name": "Belfast", "country": "United Kingdom", "region": "Northern Ireland", "lat": 54.5973, "lng": -5.9301},
  {"name": "Stoke-on-Trent", "country": "United Kingdom", "region": "England", "lat": 53.0027, "lng": -2.1794},
  {"name": "Wolverhampton", "country": "United Kingdom", "region": "England", "lat": 52.5855, "lng": -2.1282},
  {"name": "Plymouth", "country": "United Kingdom", "region": "England", "lat": 50.3755, "lng": -4.1427},
  {"name": "Derby", "country": "United Kingdom", "region": "England", "lat": 52.9225, "lng": -1.4746},
  {"name": "Swansea", "country": "United Kingdom", "region": "Wales", "lat": 51.6214, "lng": -3.9436},
  {"name": "Southampton", "country": "United Kingdom", "region": "England", "lat": 50.9097, "lng": -1.4044},
  {"name": "Paris", "country": "France", "region": "Île-de-France", "lat": 48.8566, "lng": 2.3522},
  {"name": "Marseille", "country": "France", "region": "Provence-Alpes-Côte d'Azur", "lat": 43.2965, "lng": 5.3698},
  {"name": "Lyon", "country": "France", "region": "Auvergne-Rhône-Alpes", "lat": 45.7640, "lng": 4.8357},
  {"name": "Toulouse", "country": "France", "region": "Occitanie", "lat": 43.6047, "lng": 1.4442},
  {"name": "Nice", "country": "France", "region": "Provence-Alpes-Côte d'Azur", "lat": 43.7102, "lng": 7.2620},
  {"name": "Nantes", "country": "France", "region": "Pays de la Loire", "lat": 47.2184, "lng": -1.5536},
  {"name": "Strasbourg", "country": "France", "region": "Grand Est", "lat": 48.5734, "lng": 7.7521},
  {"name": "Montpellier", "country": "France", "region": "Occitanie", "lat": 43.6110, "lng": 3.8767},
  {"name": "Bordeaux", "country": "France", "region": "Nouvelle-Aquitaine", "lat": 44.8378, "lng": -0.5792},
  {"name": "Lille", "country": "France", "region": "Hauts-de-France", "lat": 50.6292, "lng": 3.0573},
  {"name": "Rennes", "country": "France", "region": "Bretagne", "lat": 48.1173, "lng": -1.6778},
  {"name": "Reims", "country": "France", "region": "Grand Est", "lat": 49.2583, "lng": 4.0317},
  {"name": "Le Havre", "country": "France", "region": "Normandie", "lat": 49.4944, "lng": 0.1079},
  {"name": "Saint-Étienne", "country": "France", "region": "Auvergne-Rhône-Alpes", "lat": 45.4397, "lng": 4.3872},
  {"name": "Toulon", "country": "France", "region": "Provence-Alpes-Côte d'Azur", "lat": 43.1242, "lng": 5.9280},
  {"name": "Angers", "country": "France", "region": "Pays de la Loire", "lat": 47.4784, "lng": -0.5632},
  {"name": "Grenoble", "country": "France", "region": "Auvergne-Rhône-Alpes", "lat": 45.1885, "lng": 5.7245},
  {"name": "Dijon", "country": "France", "region": "Bourgogne-Franche-Comté", "lat": 47.3220, "lng": 5.0415},
  {"name": "Nîmes", "country": "France", "region": "Occitanie", "lat": 43.8367, "lng": 4.3601},
  {"name": "Aix-en-Provence", "country": "France", "region": "Provence-Alpes-Côte d'Azur", "lat": 43.5297, "lng": 5.4474},
  {"name": "Berlin", "country": "Germany", "region": "Berlin", "lat": 52.5200, "lng": 13.4050},
  {"name": "Hamburg", "country": "Germany", "region": "Hamburg", "lat": 53.5511, "lng": 9.9937},
  {"name": "Munich", "country": "Germany", "region": "Bavaria", "lat": 48.1351, "lng": 11.5820},
  {"name": "Cologne", "country": "Germany", "region": "North Rhine-Westphalia", "lat": 50.9375, "lng": 6.9603},
  {"name": "Frankfurt", "country": "Germany", "region": "Hesse", "lat": 50.1109, "lng": 8.6821},
  {"name": "Stuttgart", "country": "Germany", "region": "Baden-Württemberg", "lat": 48.7758, "lng": 9.1829},
  {"name": "Düsseldorf", "country": "Germany", "region": "North Rhine-Westphalia", "lat": 51.2277, "lng": 6.7735},
  {"name": "Dortmund", "country": "Germany", "region": "North Rhine-Westphalia", "lat": 51.5136, "lng": 7.4653},
  {"name": "Essen", "country": "Germany", "region": "North Rhine-Westphalia", "lat": 51.4556, "lng": 7.0116},
  {"name": "Leipzig", "country": "Germany", "region": "Saxony", "lat": 51.3397, "lng": 12.3731},
  {"name": "Bremen", "country": "Germany", "region": "Bremen", "lat": 53.0793, "lng": 8.8017},
  {"name": "Dresden", "country": "Germany", "region": "Saxony", "lat": 51.0504, "lng": 13.7373},
  {"name": "Hanover", "country": "Germany", "region": "Lower Saxony", "lat": 52.3759, "lng": 9.7320},
  {"name": "Nuremberg", "country": "Germany", "region": "Bavaria", "lat": 49.4521, "lng": 11.0767},
  {"name": "Duisburg", "country": "Germany", "region": "North Rhine-Westphalia", "lat": 51.4344, "lng": 6.7623},
  {"name": "Bochum", "country": "Germany", "region": "North Rhine-Westphalia", "lat": 51.4818, "lng": 7.2162},
  {"name": "Wuppertal", "country": "Germany", "region": "North Rhine-Westphalia", "lat": 51.2562, "lng": 7.1508},
  {"name": "Bielefeld", "country": "Germany", "region": "North Rhine-Westphalia", "lat": 52.0302, "lng": 8.5325},
  {"name": "Bonn", "country": "Germany", "region": "North Rhine-Westphalia", "lat": 50.7374, "lng": 7.0982},
  {"name": "Münster", "country": "Germany", "region": "North Rhine-Westphalia", "lat": 51.9607, "lng": 7.6261},
  {"name": "Tokyo", "country": "Japan", "region": "Kantō", "lat": 35.6762, "lng": 139.6503},
  {"name": "Yokohama", "country": "Japan", "region": "Kantō", "lat": 35.4437, "lng": 139.6380},
  {"name": "Osaka", "country": "Japan", "region": "Kansai", "lat": 34.6937, "lng": 135.5023},
  {"name": "Nagoya", "country": "Japan", "region": "Chūbu", "lat": 35.1815, "lng": 136.9066},
  {"name": "Sapporo", "country": "Japan", "region": "Hokkaidō", "lat": 43.0642, "lng": 141.3469},
  {"name": "Fukuoka", "country": "Japan", "region": "Kyūshū", "lat": 33.5904, "lng": 130.4017},
  {"name": "Kobe", "country": "Japan", "region": "Kansai", "lat": 34.6901, "lng": 135.1956},
  {"name": "Kyoto", "country": "Japan", "region": "Kansai", "lat": 35.0116, "lng": 135.7681},
  {"name": "Kawasaki", "country": "Japan", "region": "Kantō", "lat": 35.5308, "lng": 139.7029},
  {"name": "Saitama", "country": "Japan", "region": "Kantō", "lat": 35.8617, "lng": 139.6455},
  {"name": "Hiroshima", "country": "Japan", "region": "Chūgoku", "lat": 34.3853, "lng": 132.4553},
  {"name": "Sendai", "country": "Japan", "region": "Tōhoku", "lat": 38.2682, "lng": 140.8694},
  {"name": "Kitakyushu", "country": "Japan", "region": "Kyūshū", "lat": 33.8834, "lng": 130.8751},
  {"name": "Chiba", "country": "Japan", "region": "Kantō", "lat": 35.6074, "lng": 140.1065},
  {"name": "Sakai", "country": "Japan", "region": "Kansai", "lat": 34.5732, "lng": 135.4837},
  {"name": "Niigata", "country": "Japan", "region": "Chūbu", "lat": 37.9161, "lng": 139.0364},
  {"name": "Hamamatsu", "country": "Japan", "region": "Chūbu", "lat": 34.7108, "lng": 137.7261},
  {"name": "Okayama", "country": "Japan", "region": "Chūgoku", "lat": 34.6551, "lng": 133.9195},
  {"name": "Sagamihara", "country": "Japan", "region": "Kantō", "lat": 35.5731, "lng": 139.3738},
  {"name": "Kumamoto", "country": "Japan", "region": "Kyūshū", "lat": 32.8031, "lng": 130.7076},
  {"name": "Beijing", "country": "China", "region": "Beijing", "lat": 39.9042, "lng": 116.4074},
  {"name": "Shanghai", "country": "China", "region": "Shanghai", "lat": 31.2304, "lng": 121.4737},
  {"name": "Guangzhou", "country": "China", "region": "Guangdong", "lat": 23.1291, "lng": 113.2644},
  {"name": "Shenzhen", "country": "China", "region": "Guangdong", "lat": 22.5431, "lng": 114.0579},
  {"name": "Tianjin", "country": "China", "region": "Tianjin", "lat": 39.3434, "lng": 117.3616},
  {"name": "Wuhan", "country": "China", "region": "Hubei", "lat": 30.5928, "lng": 114.3055},
  {"name": "Dongguan", "country": "China", "region": "Guangdong", "lat": 23.0489, "lng": 113.7447},
  {"name": "Chengdu", "country": "China", "region": "Sichuan", "lat": 30.5728, "lng": 104.0668},
  {"name": "Nanjing", "country": "China", "region": "Jiangsu", "lat": 32.0603, "lng": 118.7969},
  {"name": "Chongqing", "country": "China", "region": "Chongqing", "lat": 29.4316, "lng": 106.9123},
  {"name": "Xi'an", "country": "China", "region": "Shaanxi", "lat": 34.3416, "lng": 108.9398},
  {"name": "Shenyang", "country": "China", "region": "Liaoning", "lat": 41.8057, "lng": 123.4315},
  {"name": "Hangzhou", "country": "China", "region": "Zhejiang", "lat": 30.2741, "lng": 120.1551},
  {"name": "Jinan", "country": "China", "region": "Shandong", "lat": 36.6512, "lng": 117.1201},
  {"name": "Harbin", "country": "China", "region": "Heilongjiang", "lat": 45.8038, "lng": 126.5349},
  {"name": "Kunming", "country": "China", "region": "Yunnan", "lat": 25.0389, "lng": 102.7183},
  {"name": "Foshan", "country": "China", "region": "Guangdong", "lat": 23.0218, "lng": 113.1219},
  {"name": "Zhengzhou", "country": "China", "region": "Henan", "lat": 34.7466, "lng": 113.6254},
  {"name": "Shijiazhuang", "country": "China", "region": "Hebei", "lat": 38.0428, "lng": 114.5149},
  {"name": "Suzhou", "country": "China", "region": "Jiangsu", "lat": 31.2989, "lng": 120.5853},
  {"name": "Sydney", "country": "Australia", "region": "New South Wales", "lat": -33.8688, "lng": 151.2093},
  {"name": "Melbourne", "country": "Australia", "region": "Victoria", "lat": -37.8136, "lng": 144.9631},
  {"name": "Brisbane", "country": "Australia", "region": "Queensland", "lat": -27.4698, "lng": 153.0251},
  {"name": "Perth", "country": "Australia", "region": "Western Australia", "lat": -31.9505, "lng": 115.8605},
  {"name": "Adelaide", "country": "Australia", "region": "South Australia", "lat": -34.9285, "lng": 138.6007},
  {"name": "Gold Coast", "country": "Australia", "region": "Queensland", "lat": -28.0167, "lng": 153.4000},
  {"name": "Canberra", "country": "Australia", "region": "Australian Capital Territory", "lat": -35.2809, "lng": 149.1300},
  {"name": "Newcastle", "country": "Australia", "region": "New South Wales", "lat": -32.9283, "lng": 151.7817},
  {"name": "Wollongong", "country": "Australia", "region": "New South Wales", "lat": -34.4278, "lng": 150.8931},
  {"name": "Logan City", "country": "Australia", "region": "Queensland", "lat": -27.6391, "lng": 153.1092},
  {"name": "Geelong", "country": "Australia", "region": "Victoria", "lat": -38.1499, "lng": 144.3617},
  {"name": "Hobart", "country": "Australia", "region": "Tasmania", "lat": -42.8821, "lng": 147.3272},
  {"name": "Townsville", "country": "Australia", "region": "Queensland", "lat": -19.2590, "lng": 146.8169},
  {"name": "Cairns", "country": "Australia", "region": "Queensland", "lat": -16.9186, "lng": 145.7781},
  {"name": "Darwin", "country": "Australia", "region": "Northern Territory", "lat": -12.4634, "lng": 130.8456},
  {"name": "Toowoomba", "country": "Australia", "region": "Queensland", "lat": -27.5598, "lng": 151.9507},
  {"name": "Ballarat", "country": "Australia", "region": "Victoria", "lat": -37.5622, "lng": 143.8503},
  {"name": "Bendigo", "country": "Australia", "region": "Victoria", "lat": -36.7570, "lng": 144.2794},
  {"name": "Albury", "country": "Australia", "region": "New South Wales", "lat": -36.0737, "lng": 146.9135},
  {"name": "Launceston", "country": "Australia", "region": "Tasmania", "lat": -41.4332, "lng": 147.1441},
  {"name": "Toronto", "country": "Canada", "region": "Ontario", "lat": 43.6532, "lng": -79.3832},
  {"name": "Montreal", "country": "Canada", "region": "Quebec", "lat": 45.5017, "lng": -73.5673},
  {"name": "Calgary", "country": "Canada", "region": "Alberta", "lat": 51.0447, "lng": -114.0719},
  {"name": "Ottawa", "country": "Canada", "region": "Ontario", "lat": 45.4215, "lng": -75.6972},
  {"name": "Edmonton", "country": "Canada", "region": "Alberta", "lat": 53.5461, "lng": -113.4938},
  {"name": "Mississauga", "country": "Canada", "region": "Ontario", "lat": 43.5890, "lng": -79.6441},
  {"name": "Winnipeg", "country": "Canada", "region": "Manitoba", "lat": 49.8951, "lng": -97.1384},
  {"name": "Vancouver", "country": "Canada", "region": "British Columbia", "lat": 49.2827, "lng": -123.1207},
  {"name": "Brampton", "country": "Canada", "region": "Ontario", "lat": 43.7315, "lng": -79.7624},
  {"name": "Hamilton", "country": "Canada", "region": "Ontario", "lat": 43.2557, "lng": -79.8711},
  {"name": "Quebec City", "country": "Canada", "region": "Quebec", "lat": 46.8139, "lng": -71.2082},
  {"name": "Surrey", "country": "Canada", "region": "British Columbia", "lat": 49.1913, "lng": -122.8490},
  {"name": "Laval", "country": "Canada", "region": "Quebec", "lat": 45.6066, "lng": -73.7124},
  {"name": "Halifax", "country": "Canada", "region": "Nova Scotia", "lat": 44.6488, "lng": -63.5752},
  {"name": "London", "country": "Canada", "region": "Ontario", "lat": 42.9849, "lng": -81.2453},
  {"name": "Markham", "country": "Canada", "region": "Ontario", "lat": 43.8561, "lng": -79.3370},
  {"name": "Vaughan", "country": "Canada", "region": "Ontario", "lat": 43.8361, "lng": -79.4985},
  {"name": "Gatineau", "country": "Canada", "region": "Quebec", "lat": 45.4771, "lng": -75.7011},
  {"name": "Saskatoon", "country": "Canada", "region": "Saskatchewan", "lat": 52.1579, "lng": -106.6702},
  {"name": "Longueuil", "country": "Canada", "region": "Quebec", "lat": 45.5312, "lng": -73.5186},
  {"name": "Rome", "country": "Italy", "region": "Lazio", "lat": 41.9028, "lng": 12.4964},
  {"name": "Milan", "country": "Italy", "region": "Lombardy", "lat": 45.4642, "lng": 9.1900},
  {"name": "Naples", "country": "Italy", "region": "Campania", "lat": 40.8518, "lng": 14.2681},
  {"name": "Turin", "country": "Italy", "region": "Piedmont", "lat": 45.0703, "lng": 7.6869},
  {"name": "Palermo", "country": "Italy", "region": "Sicily", "lat": 38.1157, "lng": 13.3615},
  {"name": "Genoa", "country": "Italy", "region": "Liguria", "lat": 44.4056, "lng": 8.9463},
  {"name": "Bologna", "country": "Italy", "region": "Emilia-Romagna", "lat": 44.4949, "lng": 11.3426},
  {"name": "Florence", "country": "Italy", "region": "Tuscany", "lat": 43.7696, "lng": 11.2558},
  {"name": "Bari", "country": "Italy", "region": "Apulia", "lat": 41.1171, "lng": 16.8719},
  {"name": "Catania", "country": "Italy", "region": "Sicily", "lat": 37.5079, "lng": 15.0830},
  {"name": "Venice", "country": "Italy", "region": "Veneto", "lat": 45.4408, "lng": 12.3155},
  {"name": "Verona", "country": "Italy", "region": "Veneto", "lat": 45.4384, "lng": 10.9916},
  {"name": "Messina", "country": "Italy", "region": "Sicily", "lat": 38.1938, "lng": 15.5540},
  {"name": "Padua", "country": "Italy", "region": "Veneto", "lat": 45.4064, "lng": 11.8768},
  {"name": "Trieste", "country": "Italy", "region": "Friuli-Venezia Giulia", "lat": 45.6495, "lng": 13.7768},
  {"name": "Taranto", "country": "Italy", "region": "Apulia", "lat": 40.4668, "lng": 17.2725},
  {"name": "Brescia", "country": "Italy", "region": "Lombardy", "lat": 45.5416, "lng": 10.2118},
  {"name": "Prato", "country": "Italy", "region": "Tuscany", "lat": 43.8777, "lng": 11.1025},
  {"name": "Reggio Calabria", "country": "Italy", "region": "Calabria", "lat": 38.1061, "lng": 15.6444},
  {"name": "Modena", "country": "Italy", "region": "Emilia-Romagna", "lat": 44.6471, "lng": 10.9252},
  {"name": "Madrid", "country": "Spain", "region": "Community of Madrid", "lat": 40.4168, "lng": -3.7038},
  {"name": "Barcelona", "country": "Spain", "region": "Catalonia", "lat": 41.3851, "lng": 2.1734},
  {"name": "Valencia", "country": "Spain", "region": "Valencian Community", "lat": 39.4699, "lng": -0.3763},
  {"name": "Seville", "country": "Spain", "region": "Andalusia", "lat": 37.3891, "lng": -5.9845},
  {"name": "Zaragoza", "country": "Spain", "region": "Aragon", "lat": 41.6488, "lng": -0.8891},
  {"name": "Málaga", "country": "Spain", "region": "Andalusia", "lat": 36.7213, "lng": -4.4213},
  {"name": "Murcia", "country": "Spain", "region": "Region of Murcia", "lat": 37.9922, "lng": -1.1307},
  {"name": "Palma", "country": "Spain", "region": "Balearic Islands", "lat": 39.5696, "lng": 2.6502},
  {"name": "Las Palmas", "country": "Spain", "region": "Canary Islands", "lat": 28.1235, "lng": -15.4363},
  {"name": "Bilbao", "country": "Spain", "region": "Basque Country", "lat": 43.2627, "lng": -2.9253},
  {"name": "Alicante", "country": "Spain", "region": "Valencian Community", "lat": 38.3452, "lng": -0.4810},
  {"name": "Córdoba", "country": "Spain", "region": "Andalusia", "lat": 37.8882, "lng": -4.7794},
  {"name": "Valladolid", "country": "Spain", "region": "Castile and León", "lat": 41.6523, "lng": -4.7245},
  {"name": "Vigo", "country": "Spain", "region": "Galicia", "lat": 42.2406, "lng": -8.7207},
  {"name": "Gijón", "country": "Spain", "region": "Asturias", "lat": 43.5322, "lng": -5.6611},
  {"name": "L'Hospitalet de Llobregat", "country": "Spain", "region": "Catalonia", "lat": 41.3599, "lng": 2.1006},
  {"name": "A Coruña", "country": "Spain", "region": "Galicia", "lat": 43.3623, "lng": -8.4115},
  {"name": "Vitoria-Gasteiz", "country": "Spain", "region": "Basque Country", "lat": 42.8467, "lng": -2.6716},
  {"name": "Granada", "country": "Spain", "region": "Andalusia", "lat": 37.1773, "lng": -3.5986},
  {"name": "Elche", "country": "Spain", "region": "Valencian Community", "lat": 38.2622, "lng": -0.7079},
  {"name": "Mexico City", "country": "Mexico", "region": "Mexico City", "lat": 19.4326, "lng": -99.1332},
  {"name": "Guadalajara", "country": "Mexico", "region": "Jalisco", "lat": 20.6597, "lng": -103.3496},
  {"name": "Puebla", "country": "Mexico", "region": "Puebla", "lat": 19.0414, "lng": -98.2063},
  {"name": "Tijuana", "country": "Mexico", "region": "Baja California", "lat": 32.5149, "lng": -117.0382},
  {"name": "León", "country": "Mexico", "region": "Guanajuato", "lat": 21.1619, "lng": -101.6971},
  {"name": "Juárez", "country": "Mexico", "region": "Chihuahua", "lat": 31.6904, "lng": -106.4245},
  {"name": "Monterrey", "country": "Mexico", "region": "Nuevo León", "lat": 25.6866, "lng": -100.3161},
  {"name": "Zapopan", "country": "Mexico", "region": "Jalisco", "lat": 20.7208, "lng": -103.3908},
  {"name": "Nezahualcóyotl", "country": "Mexico", "region": "State of Mexico", "lat": 19.4003, "lng": -99.0146},
  {"name": "Chihuahua", "country": "Mexico", "region": "Chihuahua", "lat": 28.6353, "lng": -106.0889},
  {"name": "Naucalpan", "country": "Mexico", "region": "State of Mexico", "lat": 19.4780, "lng": -99.2386},
  {"name": "Mérida", "country": "Mexico", "region": "Yucatán", "lat": 20.9674, "lng": -89.5926},
  {"name": "Álvaro Obregón", "country": "Mexico", "region": "Mexico City", "lat": 19.3581, "lng": -99.2038},
  {"name": "San Luis Potosí", "country": "Mexico", "region": "San Luis Potosí", "lat": 22.1565, "lng": -100.9855},
  {"name": "Tlalnepantla", "country": "Mexico", "region": "State of Mexico", "lat": 19.5398, "lng": -99.1953},
  {"name": "Aguascalientes", "country": "Mexico", "region": "Aguascalientes", "lat": 21.8853, "lng": -102.2916},
  {"name": "Morelia", "country": "Mexico", "region": "Michoacán", "lat": 19.7069, "lng": -101.1946},
  {"name": "Hermosillo", "country": "Mexico", "region": "Sonora", "lat": 29.0759, "lng": -110.9559},
  {"name": "Saltillo", "country": "Mexico", "region": "Coahuila", "lat": 25.4260, "lng": -101.0053},
  {"name": "Mexicali", "country": "Mexico", "region": "Baja California", "lat": 32.6245, "lng": -115.4523},
  {"name": "São Paulo", "country": "Brazil", "region": "São Paulo", "lat": -23.5505, "lng": -46.6333},
  {"name": "Rio de Janeiro", "country": "Brazil", "region": "Rio de Janeiro", "lat": -22.9068, "lng": -43.1729},
  {"name": "Brasília", "country": "Brazil", "region": "Federal District", "lat": -15.8267, "lng": -47.9218},
  {"name": "Salvador", "country": "Brazil", "region": "Bahia", "lat": -12.9714, "lng": -38.5014},
  {"name": "Fortaleza", "country": "Brazil", "region": "Ceará", "lat": -3.7172, "lng": -38.5433},
  {"name": "Belo Horizonte", "country": "Brazil", "region": "Minas Gerais", "lat": -19.8157, "lng": -43.9542},
  {"name": "Manaus", "country": "Brazil", "region": "Amazonas", "lat": -3.1190, "lng": -60.0217},
  {"name": "Curitiba", "country": "Brazil", "region": "Paraná", "lat": -25.4244, "lng": -49.2654},
  {"name": "Recife", "country": "Brazil", "region": "Pernambuco", "lat": -8.0476, "lng": -34.8770},
  {"name": "Porto Alegre", "country": "Brazil", "region": "Rio Grande do Sul", "lat": -30.0346, "lng": -51.2177},
  {"name": "Belém", "country": "Brazil", "region": "Pará", "lat": -1.4558, "lng": -48.5044},
  {"name": "Goiânia", "country": "Brazil", "region": "Goiás", "lat": -16.6869, "lng": -49.2648},
  {"name": "Guarulhos", "country": "Brazil", "region": "São Paulo", "lat": -23.4538, "lng": -46.5333},
  {"name": "Campinas", "country": "Brazil", "region": "São Paulo", "lat": -22.9056, "lng": -47.0608},
  {"name": "São Luís", "country": "Brazil", "region": "Maranhão", "lat": -2.5297, "lng": -44.3028},
  {"name": "São Gonçalo", "country": "Brazil", "region": "Rio de Janeiro", "lat": -22.8270, "lng": -43.0530},
  {"name": "Maceió", "country": "Brazil", "region": "Alagoas", "lat": -9.6658, "lng": -35.7350},
  {"name": "Duque de Caxias", "country": "Brazil", "region": "Rio de Janeiro", "lat": -22.7856, "lng": -43.3117},
  {"name": "Teresina", "country": "Brazil", "region": "Piauí", "lat": -5.0892, "lng": -42.8019},
  {"name": "Natal", "country": "Brazil", "region": "Rio Grande do Norte", "lat": -5.7945, "lng": -35.2110},
  {"name": "Mumbai", "country": "India", "region": "Maharashtra", "lat": 19.0760, "lng": 72.8777},
  {"name": "Delhi", "country": "India", "region": "Delhi", "lat": 28.7041, "lng": 77.1025},
  {"name": "Bangalore", "country": "India", "region": "Karnataka", "lat": 12.9716, "lng": 77.5946},
  {"name": "Hyderabad", "country": "India", "region": "Telangana", "lat": 17.3850, "lng": 78.4867},
  {"name": "Ahmedabad", "country": "India", "region": "Gujarat", "lat": 23.0225, "lng": 72.5714},
  {"name": "Chennai", "country": "India", "region": "Tamil Nadu", "lat": 13.0827, "lng": 80.2707},
  {"name": "Kolkata", "country": "India", "region": "West Bengal", "lat": 22.5726, "lng": 88.3639},
  {"name": "Surat", "country": "India", "region": "Gujarat", "lat": 21.1702, "lng": 72.8311},
  {"name": "Pune", "country": "India", "region": "Maharashtra", "lat": 18.5204, "lng": 73.8567},
  {"name": "Jaipur", "country": "India", "region": "Rajasthan", "lat": 26.9124, "lng": 75.7873},
  {"name": "Lucknow", "country": "India", "region": "Uttar Pradesh", "lat": 26.8467, "lng": 80.9462},
  {"name": "Kanpur", "country": "India", "region": "Uttar Pradesh", "lat": 26.4499, "lng": 80.3319},
  {"name": "Nagpur", "country": "India", "region": "Maharashtra", "lat": 21.1458, "lng": 79.0882},
  {"name": "Indore", "country": "India", "region": "Madhya Pradesh", "lat": 22.7196, "lng": 75.8577},
  {"name": "Thane", "country": "India", "region": "Maharashtra", "lat": 19.2183, "lng": 72.9781},
  {"name": "Bhopal", "country": "India", "region": "Madhya Pradesh", "lat": 23.2599, "lng": 77.4126},
  {"name": "Visakhapatnam", "country": "India", "region": "Andhra Pradesh", "lat": 17.6868, "lng": 83.2185},
  {"name": "Pimpri-Chinchwad", "country": "India", "region": "Maharashtra", "lat": 18.6298, "lng": 73.7997},
  {"name": "Patna", "country": "India", "region": "Bihar", "lat": 25.5941, "lng": 85.1376},
  {"name": "Vadodara", "country": "India", "region": "Gujarat", "lat": 22.3072, "lng": 73.1812},
  {"name": "Dubai", "country": "United Arab Emirates", "region": "Dubai", "lat": 25.2048, "lng": 55.2708},
  {"name": "Abu Dhabi", "country": "United Arab Emirates", "region": "Abu Dhabi", "lat": 24.4539, "lng": 54.3773},
  {"name": "Sharjah", "country": "United Arab Emirates", "region": "Sharjah", "lat": 25.3463, "lng": 55.4209},
  {"name": "Al Ain", "country": "United Arab Emirates", "region": "Abu Dhabi", "lat": 24.2075, "lng": 55.7447},
  {"name": "Ajman", "country": "United Arab Emirates", "region": "Ajman", "lat": 25.4052, "lng": 55.5136},
  {"name": "Ras Al Khaimah", "country": "United Arab Emirates", "region": "Ras Al Khaimah", "lat": 25.7889, "lng": 55.9598},
  {"name": "Fujairah", "country": "United Arab Emirates", "region": "Fujairah", "lat": 25.1164, "lng": 56.3497},
  {"name": "Umm Al Quwain", "country": "United Arab Emirates", "region": "Umm Al Quwain", "lat": 25.5644, "lng": 55.6552},
  {"name": "Istanbul", "country": "Turkey", "region": "Istanbul", "lat": 41.0082, "lng": 28.9784},
  {"name": "Ankara", "country": "Turkey", "region": "Ankara", "lat": 39.9334, "lng": 32.8597},
  {"name": "İzmir", "country": "Turkey", "region": "İzmir", "lat": 38.4192, "lng": 27.1287},
  {"name": "Bursa", "country": "Turkey", "region": "Bursa", "lat": 40.1826, "lng": 29.0665},
  {"name": "Adana", "country": "Turkey", "region": "Adana", "lat": 37.0000, "lng": 35.3213},
  {"name": "Gaziantep", "country": "Turkey", "region": "Gaziantep", "lat": 37.0662, "lng": 37.3833},
  {"name": "Konya", "country": "Turkey", "region": "Konya", "lat": 37.8713, "lng": 32.4846},
  {"name": "Çankaya", "country": "Turkey", "region": "Ankara", "lat": 39.9180, "lng": 32.8636},
  {"name": "Antalya", "country": "Turkey", "region": "Antalya", "lat": 36.8969, "lng": 30.7133},
  {"name": "Bağcılar", "country": "Turkey", "region": "Istanbul", "lat": 41.0370, "lng": 28.8414},
  {"name": "Diyarbakır", "country": "Turkey", "region": "Diyarbakır", "lat": 37.9144, "lng": 40.2306},
  {"name": "Kayseri", "country": "Turkey", "region": "Kayseri", "lat": 38.7312, "lng": 35.4787},
  {"name": "Üsküdar", "country": "Turkey", "region": "Istanbul", "lat": 41.0276, "lng": 29.0138},
  {"name": "Bahçelievler", "country": "Turkey", "region": "Istanbul", "lat": 41.0090, "lng": 28.8517},
  {"name": "Umraniye", "country": "Turkey", "region": "Istanbul", "lat": 41.0191, "lng": 29.1244},
  {"name": "Mersin", "country": "Turkey", "region": "Mersin", "lat": 36.8000, "lng": 34.6333},
  {"name": "Denizli", "country": "Turkey", "region": "Denizli", "lat": 37.7765, "lng": 29.0864},
  {"name": "Samsun", "country": "Turkey", "region": "Samsun", "lat": 41.2867, "lng": 36.3300},
  {"name": "Eskişehir", "country": "Turkey", "region": "Eskişehir", "lat": 39.7767, "lng": 30.5206},
  {"name": "Urfa", "country": "Turkey", "region": "Şanlıurfa", "lat": 37.1591, "lng": 38.7969},
  {"name": "Cairo", "country": "Egypt", "region": "Cairo", "lat": 30.0444, "lng": 31.2357},
  {"name": "Alexandria", "country": "Egypt", "region": "Alexandria", "lat": 31.2001, "lng": 29.9187},
  {"name": "Giza", "country": "Egypt", "region": "Giza", "lat": 30.0131, "lng": 31.2089},
  {"name": "Shubra El Kheima", "country": "Egypt", "region": "Qalyubia", "lat": 30.1218, "lng": 31.2443},
  {"name": "Port Said", "country": "Egypt", "region": "Port Said", "lat": 31.2653, "lng": 32.3019},
  {"name": "Suez", "country": "Egypt", "region": "Suez", "lat": 29.9668, "lng": 32.5498},
  {"name": "Luxor", "country": "Egypt", "region": "Luxor", "lat": 25.6872, "lng": 32.6396},
  {"name": "Mansoura", "country": "Egypt", "region": "Dakahlia", "lat": 31.0409, "lng": 31.3785},
  {"name": "El Mahalla El Kubra", "country": "Egypt", "region": "Gharbia", "lat": 30.9709, "lng": 31.1669},
  {"name": "Tanta", "country": "Egypt", "region": "Gharbia", "lat": 30.7865, "lng": 31.0004},
  {"name": "Asyut", "country": "Egypt", "region": "Asyut", "lat": 27.1783, "lng": 31.1859},
  {"name": "Ismailia", "country": "Egypt", "region": "Ismailia", "lat": 30.5965, "lng": 32.2715},
  {"name": "Fayyum", "country": "Egypt", "region": "Fayyum", "lat": 29.3084, "lng": 30.8428},
  {"name": "Zagazig", "country": "Egypt", "region": "Sharqia", "lat": 30.5877, "lng": 31.5046},
  {"name": "Aswan", "country": "Egypt", "region": "Aswan", "lat": 24.0889, "lng": 32.8998},
  {"name": "Damietta", "country": "Egypt", "region": "Damietta", "lat": 31.8133, "lng": 31.7148},
  {"name": "Damanhur", "country": "Egypt", "region": "Beheira", "lat": 31.0341, "lng": 30.4682},
  {"name": "Minya", "country": "Egypt", "region": "Minya", "lat": 28.0871, "lng": 30.7618},
  {"name": "Beni Suef", "country": "Egypt", "region": "Beni Suef", "lat": 29.0661, "lng": 31.0994},
  {"name": "Qena", "country": "Egypt", "region": "Qena", "lat": 26.1551, "lng": 32.7160},
  {"name": "Buenos Aires", "country": "Argentina", "region": "Buenos Aires", "lat": -34.6118, "lng": -58.3960},
  {"name": "Córdoba", "country": "Argentina", "region": "Córdoba", "lat": -31.4201, "lng": -64.1888},
  {"name": "Rosario", "country": "Argentina", "region": "Santa Fe", "lat": -32.9442, "lng": -60.6505},
  {"name": "Mendoza", "country": "Argentina", "region": "Mendoza", "lat": -32.8895, "lng": -68.8458},
  {"name": "Tucumán", "country": "Argentina", "region": "Tucumán", "lat": -26.8083, "lng": -65.2176},
  {"name": "La Plata", "country": "Argentina", "region": "Buenos Aires", "lat": -34.9215, "lng": -57.9545},
  {"name": "Mar del Plata", "country": "Argentina", "region": "Buenos Aires", "lat": -38.0023, "lng": -57.5575},
  {"name": "Salta", "country": "Argentina", "region": "Salta", "lat": -24.7821, "lng": -65.4232},
  {"name": "Santa Fe", "country": "Argentina", "region": "Santa Fe", "lat": -31.6333, "lng": -60.7000},
  {"name": "San Juan", "country": "Argentina", "region": "San Juan", "lat": -31.5375, "lng": -68.5364},
  {"name": "Resistencia", "country": "Argentina", "region": "Chaco", "lat": -27.4511, "lng": -58.9831},
  {"name": "Santiago del Estero", "country": "Argentina", "region": "Santiago del Estero", "lat": -27.7951, "lng": -64.2615},
  {"name": "Corrientes", "country": "Argentina", "region": "Corrientes", "lat": -27.4806, "lng": -58.8341},
  {"name": "Posadas", "country": "Argentina", "region": "Misiones", "lat": -27.3621, "lng": -55.8969},
  {"name": "Neuquén", "country": "Argentina", "region": "Neuquén", "lat": -38.9516, "lng": -68.0591},
  {"name": "Bahía Blanca", "country": "Argentina", "region": "Buenos Aires", "lat": -38.7183, "lng": -62.2666},
  {"name": "Paraná", "country": "Argentina", "region": "Entre Ríos", "lat": -31.7319, "lng": -60.5226},
  {"name": "Formosa", "country": "Argentina", "region": "Formosa", "lat": -26.1775, "lng": -58.1781},
  {"name": "San Luis", "country": "Argentina", "region": "San Luis", "lat": -33.2950, "lng": -66.3356},
  {"name": "La Rioja", "country": "Argentina", "region": "La Rioja", "lat": -29.4131, "lng": -66.8506}
]